[
  {
    "id": 36,
    "country": "United States",
    "city": "Chicago",
    "name": "Chicago, IL",
    "active": true,
    "hostname": "s414.pingdom.com",
    "ip": "174.34.156.130",
    "countryiso": "US",
    "ipv6": "NULL",
    "region": "NA",
    "latitude": 41.8755616,
    "longitude": -87.6244212
  },
  {
    "id": 43,
    "country": "United States",
    "city": "Denver",
    "name": "Denver, CO",
    "active": true,
    "hostname": "s421.pingdom.com",
    "ip": "173.248.147.18",
    "countryiso": "US",
    "ipv6": "2607:fc88:100:26::421",
    "region": "NA",
    "latitude": 39.7392364,
    "longitude": -104.984862
  },
  {
    "id": 47,
    "country": "Austria",
    "city": "Vienna",
    "name": "Vienna, Austria",
    "active": true,
    "hostname": "s425.pingdom.com",
    "ip": "178.255.152.2",
    "countryiso": "AT",
    "ipv6": "2a00:11c0:d:3::425",
    "region": "EU",
    "latitude": 48.2083537,
    "longitude": 16.3725042
  },
  {
    "id": 48,
    "country": "United States",
    "city": "Matawan",
    "name": "Matawan, NJ",
    "active": true,
    "hostname": "s426.pingdom.com",
    "ip": "64.237.55.3",
    "countryiso": "US",
    "ipv6": "2001:19f0:200:125d::426",
    "region": "NA",
    "latitude": 40.41483,
    "longitude": -74.2295891
  },
  {
    "id": 50,
    "country": "Switzerland",
    "city": "Zurich",
    "name": "Zurich, Switzerland",
    "active": true,
    "hostname": "s428.pingdom.com",
    "ip": "178.255.153.2",
    "countryiso": "CH",
    "ipv6": "NULL",
    "region": "EU",
    "latitude": 47.3744489,
    "longitude": 8.5410422
  },
  {
    "id": 55,
    "country": "Germany",
    "city": "Düsseldorf",
    "name": "Dusseldorf, Germany",
    "active": true,
    "hostname": "s433.pingdom.com",
    "ip": "46.20.45.18",
    "countryiso": "DE",
    "ipv6": "2001:4ba0:ffe2:22::1",
    "region": "EU",
    "latitude": 51.2254018,
    "longitude": 6.7763137
  },
  {
    "id": 58,
    "country": "Canada",
    "city": "Toronto",
    "name": "Toronto, Canada",
    "active": true,
    "hostname": "s439.pingdom.com",
    "ip": "184.75.214.66",
    "countryiso": "CA",
    "ipv6": "2606:6080:1001::439",
    "region": "NA",
    "latitude": 43.6534817,
    "longitude": -79.3839347
  },
  {
    "id": 61,
    "country": "Sweden",
    "city": "Falkenberg",
    "name": "Falkenberg, Sweden",
    "active": true,
    "hostname": "s442.pingdom.com",
    "ip": "94.247.174.83",
    "countryiso": "SE",
    "ipv6": "2a02:750:11:284::442",
    "region": "EU",
    "latitude": 56.904894,
    "longitude": 12.4912926
  },
  {
    "id": 63,
    "country": "United States",
    "city": "Portland",
    "name": "Portland, OR",
    "active": true,
    "hostname": "s444.pingdom.com",
    "ip": "199.87.228.66",
    "countryiso": "US",
    "ipv6": "2604:b480:fff9::444",
    "region": "NA",
    "latitude": 45.5202471,
    "longitude": -122.674194
  },
  {
    "id": 67,
    "country": "Canada",
    "city": "Toronto",
    "name": "Toronto 4, Canada",
    "active": true,
    "hostname": "s448.pingdom.com",
    "ip": "184.75.210.90",
    "countryiso": "CA",
    "ipv6": "2606:6080:1001:4::448",
    "region": "NA",
    "latitude": 43.6534817,
    "longitude": -79.3839347
  },
  {
    "id": 78,
    "country": "Canada",
    "city": "Toronto",
    "name": "Toronto 5, Canada",
    "active": true,
    "hostname": "s459.pingdom.com",
    "ip": "184.75.210.226",
    "countryiso": "CA",
    "ipv6": "2606:6080:1001:1::459",
    "region": "NA",
    "latitude": 43.6534817,
    "longitude": -79.3839347
  },
  {
    "id": 80,
    "country": "United States",
    "city": "Las Vegas",
    "name": "Las Vegas 5, NV",
    "active": true,
    "hostname": "s462.pingdom.com",
    "ip": "72.46.130.18",
    "countryiso": "US",
    "ipv6": "2605:6f80:0:f::462",
    "region": "NA",
    "latitude": 36.1672559,
    "longitude": -115.148516
  },
  {
    "id": 90,
    "country": "Australia",
    "city": "Sydney",
    "name": "Sydney, Australia",
    "active": true,
    "hostname": "s494.pingdom.com",
    "ip": "175.45.132.20",
    "countryiso": "AU",
    "ipv6": "2403:f000:1:100:4096:597:1:100",
    "region": "APAC",
    "latitude": -33.8698439,
    "longitude": 151.2082848
  },
  {
    "id": 91,
    "country": "Singapore",
    "city": "Singapore",
    "name": "Singapore",
    "active": true,
    "hostname": "s495.pingdom.com",
    "ip": "103.47.211.210",
    "countryiso": "SG",
    "ipv6": "2401:e780:1:91::495",
    "region": "APAC",
    "latitude": 1.2899175,
    "longitude": 103.8519072
  },
  {
    "id": 92,
    "country": "Ireland",
    "city": "Dublin",
    "name": "Dublin, Ireland",
    "active": true,
    "hostname": "s496.pingdom.com",
    "ip": "37.252.231.50",
    "countryiso": "IE",
    "ipv6": "2a00:11c0:9::496",
    "region": "EU",
    "latitude": 53.3493795,
    "longitude": -6.2605593
  },
  {
    "id": 93,
    "country": "Singapore",
    "city": "Singapore",
    "name": "Singapore 2",
    "active": true,
    "hostname": "s490.pingdom.com",
    "ip": "43.229.84.12",
    "countryiso": "SG",
    "region": "APAC",
    "latitude": 1.2899175,
    "longitude": 103.8519072
  },
  {
    "id": 106,
    "country": "Sweden",
    "city": "Stockholm",
    "name": "Stockholm, Sweden",
    "active": true,
    "hostname": "s4001.pingdom.com",
    "ip": "185.39.146.215",
    "countryiso": "SE",
    "ipv6": "2a02:752:100:e::4001",
    "region": "EU",
    "latitude": 59.3251172,
    "longitude": 18.0710935
  },
  {
    "id": 107,
    "country": "Sweden",
    "city": "Stockholm",
    "name": "Stockholm 2, Sweden",
    "active": true,
    "hostname": "s4002.pingdom.com",
    "ip": "185.39.146.214",
    "countryiso": "SE",
    "ipv6": "2a02:752:100:e::4002",
    "region": "EU",
    "latitude": 59.3251172,
    "longitude": 18.0710935
  },
  {
    "id": 108,
    "country": "Germany",
    "city": "Düsseldorf",
    "name": "Dusseldorf 2, Germany",
    "active": true,
    "hostname": "s4003.pingdom.com",
    "ip": "89.163.146.247",
    "countryiso": "DE",
    "ipv6": "2001:4ba0:ffa5:00ed::4003",
    "region": "EU",
    "latitude": 51.2254018,
    "longitude": 6.7763137
  },
  {
    "id": 109,
    "country": "Germany",
    "city": "Düsseldorf",
    "name": "Dusseldorf 3, Germany",
    "active": true,
    "hostname": "s4004.pingdom.com",
    "ip": "89.163.242.206",
    "countryiso": "DE",
    "ipv6": "2001:4ba0:ffa5:01d5::4004",
    "region": "EU",
    "latitude": 51.2254018,
    "longitude": 6.7763137
  },
  {
    "id": 110,
    "country": "United States",
    "city": "Tampa",
    "name": "Tampa 2, FL",
    "active": true,
    "hostname": "s4005.pingdom.com",
    "ip": "23.111.152.74",
    "countryiso": "US",
    "ipv6": "2604:4500:5:a::4005",
    "region": "NA",
    "latitude": 27.9477595,
    "longitude": -82.458444
  },
  {
    "id": 111,
    "country": "Denmark",
    "city": "Copenhagen",
    "name": "Copenhagen 2, Denmark",
    "active": true,
    "hostname": "s4006.pingdom.com",
    "ip": "82.103.139.165",
    "countryiso": "DK",
    "ipv6": "2a00:9080:1:125::1",
    "region": "EU",
    "latitude": 55.6867243,
    "longitude": 12.5700724
  },
  {
    "id": 114,
    "country": "United States",
    "city": "Matawan",
    "name": "Matawan 2, NJ",
    "active": true,
    "hostname": "s4009.pingdom.com",
    "ip": "64.237.49.203",
    "countryiso": "US",
    "ipv6": "2001:19f0:200:40cf:225:90ff:fed5:9aea",
    "region": "NA",
    "latitude": 40.41483,
    "longitude": -74.2295891
  },
  {
    "id": 115,
    "country": "United States",
    "city": "Los Angeles",
    "name": "Los Angeles 2, CA",
    "active": true,
    "hostname": "s4010.pingdom.com",
    "ip": "173.254.206.242",
    "countryiso": "US",
    "ipv6": "2607:fcd0:100:8d01::4010",
    "region": "NA",
    "latitude": 34.0536909,
    "longitude": -118.242766
  },
  {
    "id": 120,
    "country": "United States",
    "city": "Portland",
    "name": "Portland 2, OR",
    "active": true,
    "hostname": "s4015.pingdom.com",
    "ip": "162.218.67.34",
    "countryiso": "US",
    "ipv6": "2604:b480:fffa::4015",
    "region": "NA",
    "latitude": 45.5202471,
    "longitude": -122.674194
  },
  {
    "id": 121,
    "country": "United States",
    "city": "Virginia",
    "name": "US East 1",
    "active": true,
    "hostname": "23.22.2.46",
    "ip": "23.22.2.46",
    "countryiso": "US",
    "region": "NA",
    "latitude": 47.52326,
    "longitude": -92.536571
  },
  {
    "id": 122,
    "country": "United States",
    "city": "Virginia",
    "name": "US East 2",
    "active": true,
    "hostname": "52.73.209.122",
    "ip": "52.73.209.122",
    "countryiso": "US",
    "region": "NA",
    "latitude": 47.52326,
    "longitude": -92.536571
  },
  {
    "id": 123,
    "country": "United States",
    "city": "Virginia",
    "name": "US East 3",
    "active": true,
    "hostname": "52.201.3.199",
    "ip": "52.201.3.199",
    "countryiso": "US",
    "region": "NA",
    "latitude": 47.52326,
    "longitude": -92.536571
  },
  {
    "id": 124,
    "country": "United States",
    "city": "Virginia",
    "name": "US East 4",
    "active": true,
    "hostname": "50.16.153.186",
    "ip": "50.16.153.186",
    "countryiso": "US",
    "region": "NA",
    "latitude": 47.52326,
    "longitude": -92.536571
  },
  {
    "id": 125,
    "country": "United States",
    "city": "California",
    "name": "US West 1",
    "active": true,
    "hostname": "52.52.95.213",
    "ip": "52.52.95.213",
    "countryiso": "US",
    "region": "NA",
    "latitude": 38.628683,
    "longitude": -92.5659635
  },
  {
    "id": 126,
    "country": "United States",
    "city": "California",
    "name": "US West 2",
    "active": true,
    "hostname": "52.52.34.158",
    "ip": "52.52.34.158",
    "countryiso": "US",
    "region": "NA",
    "latitude": 38.628683,
    "longitude": -92.5659635
  },
  {
    "id": 127,
    "country": "United States",
    "city": "Oregon",
    "name": "US West 3",
    "active": true,
    "hostname": "54.68.48.199",
    "ip": "54.68.48.199",
    "countryiso": "US",
    "region": "NA",
    "latitude": 42.0147513,
    "longitude": -89.3323279
  },
  {
    "id": 128,
    "country": "United States",
    "city": "Oregon",
    "name": "US West 4",
    "active": true,
    "hostname": "52.89.43.70",
    "ip": "52.89.43.70",
    "countryiso": "US",
    "region": "NA",
    "latitude": 42.0147513,
    "longitude": -89.3323279
  },
  {
    "id": 129,
    "country": "United States",
    "city": "Oregon",
    "name": "US West 5",
    "active": true,
    "hostname": "52.24.42.103",
    "ip": "52.24.42.103",
    "countryiso": "US",
    "region": "NA",
    "latitude": 42.0147513,
    "longitude": -89.3323279
  },
  {
    "id": 130,
    "country": "Ireland",
    "city": "Dublin",
    "name": "EU 1",
    "active": true,
    "hostname": "52.209.34.226",
    "ip": "52.209.34.226",
    "countryiso": "IE",
    "region": "EU",
    "latitude": 53.3493795,
    "longitude": -6.2605593
  },
  {
    "id": 131,
    "country": "Ireland",
    "city": "Dublin",
    "name": "EU 2",
    "active": true,
    "hostname": "52.209.186.226",
    "ip": "52.209.186.226",
    "countryiso": "IE",
    "region": "EU",
    "latitude": 53.3493795,
    "longitude": -6.2605593
  },
  {
    "id": 132,
    "country": "Ireland",
    "city": "Dublin",
    "name": "EU 3",
    "active": true,
    "hostname": "52.210.232.124",
    "ip": "52.210.232.124",
    "countryiso": "IE",
    "region": "EU",
    "latitude": 53.3493795,
    "longitude": -6.2605593
  },
  {
    "id": 133,
    "country": "Germany",
    "city": "Frankfurt",
    "name": "EU 4",
    "active": true,
    "hostname": "52.59.46.112",
    "ip": "52.59.46.112",
    "countryiso": "DE",
    "region": "EU",
    "latitude": 50.1106444,
    "longitude": 8.6820917
  },
  {
    "id": 134,
    "country": "Germany",
    "city": "Frankfurt",
    "name": "EU 5",
    "active": true,
    "hostname": "52.59.147.246",
    "ip": "52.59.147.246",
    "countryiso": "DE",
    "region": "EU",
    "latitude": 50.1106444,
    "longitude": 8.6820917
  },
  {
    "id": 135,
    "country": "Japan",
    "city": "Tokyo",
    "name": "Asia East 1",
    "active": true,
    "hostname": "52.198.25.184",
    "ip": "52.198.25.184",
    "countryiso": "JP",
    "region": "APAC",
    "latitude": 35.6821936,
    "longitude": 139.762221
  },
  {
    "id": 136,
    "country": "Japan",
    "city": "Tokyo",
    "name": "Asia East 2",
    "active": true,
    "hostname": "52.197.224.235",
    "ip": "52.197.224.235",
    "countryiso": "JP",
    "region": "APAC",
    "latitude": 35.6821936,
    "longitude": 139.762221
  },
  {
    "id": 137,
    "country": "Australia",
    "city": "Sydney",
    "name": "Australia 1",
    "active": true,
    "hostname": "52.63.142.2",
    "ip": "52.63.142.2",
    "countryiso": "AU",
    "region": "APAC",
    "latitude": -33.8698439,
    "longitude": 151.2082848
  },
  {
    "id": 138,
    "country": "Australia",
    "city": "Sydney",
    "name": "Australia 2",
    "active": true,
    "hostname": "52.63.164.147",
    "ip": "52.63.164.147",
    "countryiso": "AU",
    "region": "APAC",
    "latitude": -33.8698439,
    "longitude": 151.2082848
  },
  {
    "id": 139,
    "country": "Australia",
    "city": "Sydney",
    "name": "Australia 3",
    "active": true,
    "hostname": "52.62.12.49",
    "ip": "52.62.12.49",
    "countryiso": "AU",
    "region": "APAC",
    "latitude": -33.8698439,
    "longitude": 151.2082848
  },
  {
    "id": 140,
    "country": "United States",
    "city": "Virginia",
    "name": "US East 5",
    "active": true,
    "hostname": "52.0.204.16",
    "ip": "52.0.204.16",
    "countryiso": "US",
    "region": "NA",
    "latitude": 47.52326,
    "longitude": -92.536571
  },
  {
    "id": 141,
    "country": "United States",
    "city": "California",
    "name": "US West 6",
    "active": true,
    "hostname": "52.52.118.192",
    "ip": "52.52.118.192",
    "countryiso": "US",
    "region": "NA",
    "latitude": 38.628683,
    "longitude": -92.5659635
  },
  {
    "id": 142,
    "country": "United States",
    "city": "Oregon",
    "name": "US West 7",
    "active": true,
    "hostname": "54.70.202.58",
    "ip": "54.70.202.58",
    "countryiso": "US",
    "region": "NA",
    "latitude": 42.0147513,
    "longitude": -89.3323279
  },
  {
    "id": 143,
    "country": "Ireland",
    "city": "Dublin",
    "name": "EU 6",
    "active": true,
    "hostname": "52.48.244.35",
    "ip": "52.48.244.35",
    "countryiso": "IE",
    "region": "EU",
    "latitude": 53.3493795,
    "longitude": -6.2605593
  },
  {
    "id": 144,
    "country": "Germany",
    "city": "Frankfurt",
    "name": "EU 7",
    "active": true,
    "hostname": "52.57.132.90",
    "ip": "52.57.132.90",
    "countryiso": "DE",
    "region": "EU",
    "latitude": 50.1106444,
    "longitude": 8.6820917
  },
  {
    "id": 145,
    "country": "Japan",
    "city": "Tokyo",
    "name": "Asia East 3",
    "active": true,
    "hostname": "52.197.31.124",
    "ip": "52.197.31.124",
    "countryiso": "JP",
    "region": "APAC",
    "latitude": 35.6821936,
    "longitude": 139.762221
  },
  {
    "id": 146,
    "country": "Australia",
    "city": "Sydney",
    "name": "Australia 4",
    "active": true,
    "hostname": "52.63.167.55",
    "ip": "52.63.167.55",
    "countryiso": "AU",
    "region": "APAC",
    "latitude": -33.8698439,
    "longitude": 151.2082848
  },
  {
    "id": 149,
    "country": "Greece",
    "city": "Athens",
    "name": "Athens, Greece",
    "active": true,
    "hostname": "s4019.pingdom.com",
    "ip": "185.70.76.23",
    "countryiso": "GR",
    "ipv6": "NULL",
    "region": "EU",
    "latitude": 37.9755648,
    "longitude": 23.7348324
  },
  {
    "id": 150,
    "country": "Denmark",
    "city": "Copenhagen",
    "name": "Copenhagen 3, Denmark",
    "active": true,
    "hostname": "s4020.pingdom.com",
    "ip": "82.103.136.16",
    "countryiso": "DK",
    "ipv6": "2a00:9080:1:453::1",
    "region": "EU",
    "latitude": 55.6867243,
    "longitude": 12.5700724
  },
  {
    "id": 161,
    "country": "United States",
    "city": "Washington",
    "name": "Washington 2, DC",
    "active": true,
    "hostname": "s485.pingdom.com",
    "ip": "207.244.80.239",
    "countryiso": "US",
    "ipv6": "NULL",
    "region": "NA",
    "latitude": 38.8950368,
    "longitude": -77.0365427
  },
  {
    "id": 163,
    "country": "Peru",
    "city": "Lima",
    "name": "Lima, Peru",
    "active": false,
    "hostname": "s4026.pingdom.com",
    "ip": "188.172.252.34",
    "countryiso": "PE",
    "ipv6": "2803:ad80:16:258::4026",
    "region": "LATAM",
    "latitude": -12.0621065,
    "longitude": -77.0365256
  },
  {
    "id": 166,
    "country": "Argentina",
    "city": "Buenos Aires",
    "name": "Buenos Aires, Argentina",
    "active": true,
    "hostname": "s4025.pingdom.com",
    "ip": "200.58.101.248",
    "countryiso": "AR",
    "region": "LATAM",
    "latitude": -34.6037181,
    "longitude": -58.38153
  },
  {
    "id": 175,
    "country": "Brazil",
    "city": "Rio de Janeiro",
    "name": "Rio de Janeiro, Brazil",
    "active": true,
    "hostname": "s4021.pingdom.com",
    "ip": "201.33.21.5",
    "countryiso": "BR",
    "ipv6": "2804:4c4:dc10:8860::4021",
    "region": "LATAM",
    "latitude": -22.9110137,
    "longitude": -43.2093727
  },
  {
    "id": 178,
    "country": "Colombia",
    "city": "Medellin",
    "name": "Medellin, Colombia",
    "active": true,
    "hostname": "s4022.pingdom.com",
    "ip": "179.50.12.212",
    "countryiso": "CO",
    "ipv6": "NULL",
    "region": "LATAM",
    "latitude": 6.2443382,
    "longitude": -75.573553
  },
  {
    "id": 181,
    "country": "Brazil",
    "city": "São Paulo",
    "name": "Sao Paulo, Brazil",
    "active": true,
    "hostname": "s4027.pingdom.com",
    "ip": "54.94.206.111",
    "countryiso": "BR",
    "ipv6": "2600:1f1e:d7c:fd03::4027",
    "region": "LATAM",
    "latitude": -1.2043218,
    "longitude": -47.1583944
  },
  {
    "id": 184,
    "country": "Brazil",
    "city": "São Paulo",
    "name": "Sao Paulo 2, Brazil",
    "active": true,
    "hostname": "s4028.pingdom.com",
    "ip": "52.67.148.55",
    "countryiso": "BR",
    "ipv6": "2600:1f1e:d7c:fd05::4028",
    "region": "LATAM",
    "latitude": -1.2043218,
    "longitude": -47.1583944
  },
  {
    "id": 210,
    "country": "United States",
    "city": "Chicago",
    "name": "Chicago 2, IL",
    "active": true,
    "hostname": "s4030.pingdom.com",
    "ip": "104.129.30.18",
    "countryiso": "US",
    "ipv6": "2607:fcd0:bb80:1e00::4030",
    "region": "NA",
    "latitude": 41.8755616,
    "longitude": -87.6244212
  },
  {
    "id": 216,
    "country": "United States",
    "city": "Los Angeles",
    "name": "Los Angeles 3, CA",
    "active": true,
    "hostname": "s4032.pingdom.com",
    "ip": "66.165.229.130",
    "countryiso": "US",
    "ipv6": "2604:4500:0008:0120::4032",
    "region": "NA",
    "latitude": 34.0536909,
    "longitude": -118.242766
  },
  {
    "id": 219,
    "country": "United States",
    "city": "New York",
    "name": "New York 2, NY",
    "active": true,
    "hostname": "s4031.pingdom.com",
    "ip": "66.165.233.234",
    "countryiso": "US",
    "ipv6": "2604:4500:9:5d::4031",
    "region": "NA",
    "latitude": 40.7127281,
    "longitude": -74.0060152
  },
  {
    "id": 225,
    "country": "United States",
    "city": "Atlanta",
    "name": "Atlanta 2, GA",
    "active": false,
    "hostname": "s4033.pingdom.com",
    "ip": "23.111.159.174",
    "countryiso": "US",
    "ipv6": "2604:4500:5:a0::4033",
    "region": "NA",
    "latitude": 33.7489924,
    "longitude": -84.3902644
  },
  {
    "id": 231,
    "country": "United States",
    "city": "Seattle",
    "name": "Seattle, WA",
    "active": true,
    "hostname": "s4034.pingdom.com",
    "ip": "76.164.234.106",
    "countryiso": "US",
    "ipv6": "NULL",
    "region": "NA",
    "latitude": 47.6038321,
    "longitude": -122.330062
  },
  {
    "id": 234,
    "country": "United States",
    "city": "Seattle",
    "name": "Seattle 2, WA",
    "active": true,
    "hostname": "s4035.pingdom.com",
    "ip": "76.164.234.130",
    "countryiso": "US",
    "ipv6": "NULL",
    "region": "NA",
    "latitude": 47.6038321,
    "longitude": -122.330062
  },
  {
    "id": 244,
    "country": "United States",
    "city": "Atlanta",
    "name": "Atlanta 3, GA",
    "active": true,
    "hostname": "s4039.pingdom.com",
    "ip": "104.129.24.154",
    "countryiso": "US",
    "ipv6": "2607:fcd0:aa80:2a00::4039",
    "region": "NA",
    "latitude": 33.7489924,
    "longitude": -84.3902644
  },
  {
    "id": 245,
    "country": "United States",
    "city": "Phoenix",
    "name": "Phoenix 2, AZ",
    "active": true,
    "hostname": "s4040.pingdom.com",
    "ip": "23.83.129.219",
    "countryiso": "US",
    "ipv6": "NULL",
    "region": "NA",
    "latitude": 33.4484367,
    "longitude": -112.074141
  },
  {
    "id": 246,
    "country": "Spain",
    "city": "Madrid",
    "name": "Madrid, Spain",
    "active": true,
    "hostname": "s4041.pingdom.com",
    "ip": "185.93.3.65",
    "countryiso": "ES",
    "ipv6": "2a02:6ea0:c305::4041",
    "region": "EU",
    "latitude": 40.4167047,
    "longitude": -3.7035825
  },
  {
    "id": 247,
    "country": "Austria",
    "city": "Vienna",
    "name": "Vienna 2, Austria",
    "active": true,
    "hostname": "s4042.pingdom.com",
    "ip": "185.180.12.65",
    "countryiso": "AT",
    "ipv6": "2a02:6ea0:cb01::4042",
    "region": "EU",
    "latitude": 48.2083537,
    "longitude": 16.3725042
  },
  {
    "id": 248,
    "country": "Czech Republic",
    "city": "Prague",
    "name": "Prague 2, Czech Republic",
    "active": true,
    "hostname": "s4043.pingdom.com",
    "ip": "185.152.65.167",
    "countryiso": "CZ",
    "ipv6": "2a02:6ea0:c216::4043",
    "region": "EU",
    "latitude": 50.0596288,
    "longitude": 14.446459273258009
  },
  {
    "id": 249,
    "country": "Poland",
    "city": "Warsaw",
    "name": "Warsaw, Poland",
    "active": true,
    "hostname": "s4044.pingdom.com",
    "ip": "185.246.208.82",
    "countryiso": "PL",
    "ipv6": "2a02:6ea0:ce02::4044",
    "region": "EU",
    "latitude": 52.2337172,
    "longitude": 21.071432235636493
  },
  {
    "id": 250,
    "country": "United States",
    "city": "San Francisco",
    "name": "San Francisco, CA",
    "active": true,
    "hostname": "s4045.pingdom.com",
    "ip": "209.58.139.193",
    "countryiso": "US",
    "ipv6": "2605:fe80:2100:a00f:4::4045",
    "region": "NA",
    "latitude": 37.7792588,
    "longitude": -122.4193286
  },
  {
    "id": 251,
    "country": "United States",
    "city": "San Francisco",
    "name": "San Francisco 2, CA",
    "active": true,
    "hostname": "s4046.pingdom.com",
    "ip": "209.58.139.194",
    "countryiso": "US",
    "ipv6": "2605:fe80:2100:a00f:5::4046",
    "region": "NA",
    "latitude": 37.7792588,
    "longitude": -122.4193286
  },
  {
    "id": 252,
    "country": "United States",
    "city": "Dallas",
    "name": "Dallas 2, TX",
    "active": true,
    "hostname": "s4047.pingdom.com",
    "ip": "172.241.112.86",
    "countryiso": "US",
    "ipv6": "2606:9880:f000:4:5::4047",
    "region": "NA",
    "latitude": 32.7762719,
    "longitude": -96.7968559
  },
  {
    "id": 253,
    "country": "Germany",
    "city": "Berlin",
    "name": "Berlin, Germany",
    "active": true,
    "hostname": "s4048.pingdom.com",
    "ip": "82.103.145.126",
    "countryiso": "DE",
    "ipv6": "2a00:9080:2145:e::4048",
    "region": "EU",
    "latitude": 52.5170365,
    "longitude": 13.3888599
  },
  {
    "id": 254,
    "country": "Japan",
    "city": "Tokyo",
    "name": "Tokyo, Japan",
    "active": true,
    "hostname": "s4049.pingdom.com",
    "ip": "52.194.115.181",
    "countryiso": "JP",
    "ipv6": "2406:da14:48a:7b03::4049",
    "region": "APAC",
    "latitude": 35.6821936,
    "longitude": 139.762221
  },
  {
    "id": 255,
    "country": "India",
    "city": "Mumbai",
    "name": "Mumbai, India",
    "active": true,
    "hostname": "s4050.pingdom.com",
    "ip": "13.232.220.164",
    "countryiso": "IN",
    "ipv6": "2406:da1a:b0a:bf02::4050",
    "region": "APAC",
    "latitude": 18.9733536,
    "longitude": 72.82810491917377
  },
  {
    "id": 256,
    "country": "Netherlands",
    "city": "Amsterdam",
    "name": "Amsterdam, Netherlands",
    "active": true,
    "hostname": "s4052.pingdom.com",
    "ip": "94.75.211.73",
    "countryiso": "NL",
    "ipv6": "2001:1af8:4400:a056::4052",
    "region": "EU",
    "latitude": 52.3730796,
    "longitude": 4.8924534
  },
  {
    "id": 257,
    "country": "Netherlands",
    "city": "Amsterdam",
    "name": "Amsterdam 1, Netherlands",
    "active": true,
    "hostname": "s4053.pingdom.com",
    "ip": "94.75.211.74",
    "countryiso": "NL",
    "ipv6": "2001:1af8:4400:a056::4053",
    "region": "EU",
    "latitude": 52.3730796,
    "longitude": 4.8924534
  },
  {
    "id": 260,
    "country": "Norway",
    "city": "Oslo",
    "name": "Oslo 2",
    "active": true,
    "hostname": "s4055.pingdom.com",
    "ip": "46.246.122.10",
    "countryiso": "NO",
    "ipv6": "2a00:1a28:2000::4055",
    "region": "EU",
    "latitude": 59.9133301,
    "longitude": 10.7389701
  },
  {
    "id": 261,
    "country": "United States",
    "city": "St. Louis",
    "name": "St. Louis 4",
    "active": true,
    "hostname": "s4060.pingdom.com",
    "ip": "148.72.170.233",
    "countryiso": "US",
    "ipv6": "NULL",
    "region": "NA",
    "latitude": 38.6280278,
    "longitude": -90.1910154
  },
  {
    "id": 262,
    "country": "United States",
    "city": "St. Louis",
    "name": "St. Louis 5",
    "active": true,
    "hostname": "s4059.pingdom.com",
    "ip": "148.72.171.17",
    "countryiso": "US",
    "ipv6": "NULL",
    "region": "NA",
    "latitude": 38.6280278,
    "longitude": -90.1910154
  },
  {
    "id": 263,
    "country": "France",
    "city": "Strasbourg",
    "name": "Strasbourg 8, France",
    "active": true,
    "hostname": "s4058.pingdom.com",
    "ip": "151.106.52.134",
    "countryiso": "FR",
    "ipv6": "2a01:7a7:2:205c::4058",
    "region": "EU",
    "latitude": 48.584614,
    "longitude": 7.7507127
  },
  {
    "id": 264,
    "country": "France",
    "city": "Strasbourg",
    "name": "Strasbourg 9, France",
    "active": true,
    "hostname": "s4057.pingdom.com",
    "ip": "185.136.156.82",
    "countryiso": "FR",
    "ipv6": "2a01:7a7:2:205d::4057",
    "region": "EU",
    "latitude": 48.584614,
    "longitude": 7.7507127
  },
  {
    "id": 265,
    "country": "Germany",
    "city": "Frankfurt",
    "name": "Frankfurt 3, Germany",
    "active": true,
    "hostname": "s4056.pingdom.com",
    "ip": "85.195.116.134",
    "countryiso": "DE",
    "ipv6": "2a01:7a0:2:1754::4056",
    "region": "EU",
    "latitude": 50.1106444,
    "longitude": 8.6820917
  },
  {
    "id": 267,
    "country": "Canada",
    "city": "Toronto",
    "name": "Toronto 6",
    "active": true,
    "hostname": "s4062.pingdom.com",
    "ip": "162.253.128.178",
    "countryiso": "CA",
    "ipv6": "NULL",
    "region": "NA",
    "latitude": 43.6534817,
    "longitude": -79.3839347
  },
  {
    "id": 268,
    "country": "Canada",
    "city": "Toronto",
    "name": "Toronto 7",
    "active": true,
    "hostname": "s4063.pingdom.com",
    "ip": "184.75.214.98",
    "countryiso": "CA",
    "ipv6": "NULL",
    "region": "NA",
    "latitude": 43.6534817,
    "longitude": -79.3839347
  },
  {
    "id": 270,
    "country": "United Kingdom",
    "city": "London",
    "name": "London 3, UK",
    "active": true,
    "hostname": "s4065.pingdom.com",
    "ip": "23.106.37.99",
    "countryiso": "GB",
    "ipv6": "2a0d:3002:2100:a00c:5::4065",
    "region": "EU",
    "latitude": 51.4893335,
    "longitude": -0.14405508452768728
  },
  {
    "id": 271,
    "country": "Spain",
    "city": "Barcelona",
    "name": "Barcelona, Spain",
    "active": true,
    "hostname": "s4066.pingdom.com",
    "ip": "108.181.70.3",
    "countryiso": "ES",
    "ipv6": "2604:6600:fdc0:12::4066",
    "region": "EU",
    "latitude": 41.3828939,
    "longitude": 2.1774322
  },
  {
    "id": 272,
    "country": "United States",
    "city": "Dallas",
    "name": "Dallas, TX",
    "active": true,
    "hostname": "s4067.pingdom.com",
    "ip": "50.2.185.66",
    "countryiso": "US",
    "ipv6": "2607:ff28:800f:21::4067",
    "region": "NA",
    "latitude": 32.7762719,
    "longitude": -96.7968559
  },
  {
    "id": 273,
    "country": "Chile",
    "city": "Santiago",
    "name": "Santiago, Chile",
    "active": true,
    "hostname": "s4068.pingdom.com",
    "ip": "190.120.230.7",
    "countryiso": "CL",
    "ipv6": "NULL",
    "region": "LATAM",
    "latitude": -33.4377756,
    "longitude": -70.6504502
  },
  {
    "id": 275,
    "country": "France",
    "city": "Paris",
    "name": "Paris 2, France",
    "active": true,
    "hostname": "s4070.pingdom.com",
    "ip": "169.51.2.18",
    "countryiso": "FR",
    "ipv6": "2a03:8180:1301:146::4070",
    "region": "EU",
    "latitude": 48.8588897,
    "longitude": 2.3200410217200766
  },
  {
    "id": 278,
    "country": "Canada",
    "city": "Vancouver",
    "name": "Vancouver, Canada",
    "active": true,
    "hostname": "s4073.pingdom.com",
    "ip": "196.240.207.18",
    "countryiso": "CA",
    "ipv6": "2a02:5740:24:14::4073",
    "region": "NA",
    "latitude": 49.2608724,
    "longitude": -123.113952
  },
  {
    "id": 279,
    "country": "Ireland",
    "city": "Dublin",
    "name": "Dublin 2, Ireland",
    "active": true,
    "hostname": "s4074.pingdom.com",
    "ip": "23.92.127.2",
    "countryiso": "IE",
    "ipv6": "2a02:5740:21:6::4074",
    "region": "EU",
    "latitude": 53.3493795,
    "longitude": -6.2605593
  },
  {
    "id": 280,
    "country": "Finland",
    "city": "Helsinki",
    "name": "Helsinki, Finland",
    "active": true,
    "hostname": "s4075.pingdom.com",
    "ip": "196.244.191.18",
    "countryiso": "FI",
    "ipv6": "2a02:5740:9:37::4075",
    "region": "EU",
    "latitude": 60.1674881,
    "longitude": 24.9427473
  },
  {
    "id": 281,
    "country": "Slovakia",
    "city": "Bratislava",
    "name": "Bratislava, Slovakia",
    "active": true,
    "hostname": "s4076.pingdom.com",
    "ip": "196.245.151.42",
    "countryiso": "SK",
    "ipv6": "2a02:5740:1:11::4076",
    "region": "EU",
    "latitude": 48.1516988,
    "longitude": 17.1093063
  },
  {
    "id": 282,
    "country": "United States",
    "city": "Las Vegas",
    "name": "Las Vegas, NV",
    "active": true,
    "hostname": "s4077.pingdom.com",
    "ip": "72.46.131.10",
    "countryiso": "US",
    "ipv6": "NULL",
    "region": "NA",
    "latitude": 36.1672559,
    "longitude": -115.148516
  },
  {
    "id": 283,
    "country": "Australia",
    "city": "Sydney",
    "name": "Sydney 2, Australia",
    "active": false,
    "hostname": "s4078.pingdom.com",
    "ip": "168.1.203.46",
    "countryiso": "AU",
    "ipv6": "2401:c900:1401:0071::4078",
    "region": "APAC",
    "latitude": -33.8698439,
    "longitude": 151.2082848
  },
  {
    "id": 284,
    "country": "Canada",
    "city": "Montreal",
    "name": "Montreal, Canada",
    "active": true,
    "hostname": "s4079.pingdom.com",
    "ip": "169.54.70.214",
    "countryiso": "CA",
    "ipv6": "2607:f0d0:3701:00f2::4079",
    "region": "NA",
    "latitude": 45.5031824,
    "longitude": -73.5698065
  },
  {
    "id": 286,
    "country": "United Kingdom",
    "city": "London",
    "name": "London 4, UK",
    "active": true,
    "hostname": "s4081.pingdom.com",
    "ip": "212.78.83.16",
    "countryiso": "GB",
    "ipv6": "NULL",
    "region": "EU",
    "latitude": 51.4893335,
    "longitude": -0.14405508452768728
  },
  {
    "id": 287,
    "country": "United Kingdom",
    "city": "London",
    "name": "London 5, UK",
    "active": true,
    "hostname": "s4082.pingdom.com",
    "ip": "212.78.83.12",
    "countryiso": "GB",
    "ipv6": "NULL",
    "region": "EU",
    "latitude": 51.4893335,
    "longitude": -0.14405508452768728
  },
  {
    "id": 288,
    "country": "United States",
    "city": "Salt Lake City",
    "name": "Salt Lake City 1, Utah",
    "active": true,
    "hostname": "s4083.pingdom.com",
    "ip": "107.182.234.77",
    "countryiso": "US",
    "ipv6": "NULL",
    "region": "NA",
    "latitude": 40.7596198,
    "longitude": -111.886797
  },
  {
    "id": 289,
    "country": "United States",
    "city": "New York",
    "name": "New York 3, NY",
    "active": true,
    "hostname": "s4084.pingdom.com",
    "ip": "209.95.50.14",
    "countryiso": "US",
    "ipv6": "NULL",
    "region": "NA",
    "latitude": 40.7127281,
    "longitude": -74.0060152
  },
  {
    "id": 291,
    "country": "Germany",
    "city": "Frankfurt",
    "name": "Frankfurt 2, Germany (New)",
    "active": true,
    "hostname": "s4086.pingdom.com",
    "ip": "178.162.206.244",
    "countryiso": "DE",
    "ipv6": "2a00:c98:2050:a03a::4086",
    "region": "EU",
    "latitude": 50.1106444,
    "longitude": 8.6820917
  },
  {
    "id": 207,
    "country": "United States",
    "city": "Miami",
    "name": "Miami, FL",
    "active": true,
    "hostname": "s4029.pingdom.com",
    "ip": "96.47.225.18",
    "countryiso": "US",
    "ipv6": "2607:ff48:aa81:4b00::4029",
    "region": "NA",
    "latitude": 25.7741728,
    "longitude": -80.19362
  }
]